{
"type": "FeatureCollection",
"name": "طبقة بلا عنوان",
"crs": { "type": "name", "properties": { "name": "urn:ogc:def:crs:OGC:1.3:CRS84" } },
"features": [
{ "type": "Feature", "properties": { "Name": "بــ لبن - b.laban" }, "geometry": { "type": "Point", "coordinates": [ 30.9447835, 29.9733104 ] } },
{ "type": "Feature", "properties": { "Name": "بلبن" }, "geometry": { "type": "Point", "coordinates": [ 30.9672355, 30.0265546 ] } },
{ "type": "Feature", "properties": { "Name": "ب لبن - B - LABAN" }, "geometry": { "type": "Point", "coordinates": [ 31.1508982, 29.9951201 ] } },
{ "type": "Feature", "properties": { "Name": "بلبن - فرع فيصل" }, "geometry": { "type": "Point", "coordinates": [ 31.1855451, 30.0081291 ] } },
{ "type": "Feature", "properties": { "Name": "B-Laban" }, "geometry": { "type": "Point", "coordinates": [ 31.1877241, 30.008929 ] } },
{ "type": "Feature", "properties": { "Name": "ب لبن" }, "geometry": { "type": "Point", "coordinates": [ 31.1880242, 30.0090699 ] } },
{ "type": "Feature", "properties": { "Name": "ب لبن" }, "geometry": { "type": "Point", "coordinates": [ 31.2188672, 30.0809984 ] } },
{ "type": "Feature", "properties": { "Name": "بلبن" }, "geometry": { "type": "Point", "coordinates": [ 31.2307953, 30.0520591 ] } },
{ "type": "Feature", "properties": { "Name": "بلبن" }, "geometry": { "type": "Point", "coordinates": [ 31.2416152, 30.0520566 ] } },
{ "type": "Feature", "properties": { "Name": "بــ لبن مصر الجديدة" }, "geometry": { "type": "Point", "coordinates": [ 31.3240119, 30.0926065 ] } },
{ "type": "Feature", "properties": { "Name": "ب لبن" }, "geometry": { "type": "Point", "coordinates": [ 31.3405227, 30.1198085 ] } },
{ "type": "Feature", "properties": { "Name": "محل بلبن - شارع شبرا" }, "geometry": { "type": "Point", "coordinates": [ 31.2450917, 30.0790005 ] } },
{ "type": "Feature", "properties": { "Name": "بلبن _ الرحاب" }, "geometry": { "type": "Point", "coordinates": [ 31.4908533, 30.0569238 ] } },
{ "type": "Feature", "properties": { "Name": "بلبن" }, "geometry": { "type": "Point", "coordinates": [ 31.3198555, 30.0007693 ] } },
{ "type": "Feature", "properties": { "Name": "B.LABAN" }, "geometry": { "type": "Point", "coordinates": [ 31.3368703, 30.062572 ] } },
{ "type": "Feature", "properties": { "Name": "بلبن" }, "geometry": { "type": "Point", "coordinates": [ 31.4965505, 30.0431265 ] } },
{ "type": "Feature", "properties": { "Name": "B.Laban Helwan - ب لبن حلوان" }, "geometry": { "type": "Point", "coordinates": [ 31.331084, 29.8473422 ] } },
{ "type": "Feature", "properties": { "Name": "بلبن" }, "geometry": { "type": "Point", "coordinates": [ 31.3550223, 31.0458948 ] } },
{ "type": "Feature", "properties": { "Name": "بلبن المنصورة فرع ٢" }, "geometry": { "type": "Point", "coordinates": [ 31.3691165, 31.0462459 ] } },
{ "type": "Feature", "properties": { "Name": "بلبن \"فرع المحلة الكبرى\"" }, "geometry": { "type": "Point", "coordinates": [ 31.1740195, 30.9752718 ] } },
{ "type": "Feature", "properties": { "Name": "ب لبن" }, "geometry": { "type": "Point", "coordinates": [ 31.4945375, 30.5895611 ] } },
{ "type": "Feature", "properties": { "Name": "ب لبن _ شبين الكوم" }, "geometry": { "type": "Point", "coordinates": [ 31.0070903, 30.5699516 ] } },
{ "type": "Feature", "properties": { "Name": "B. Labn ب. لبن" }, "geometry": { "type": "Point", "coordinates": [ 31.8390087, 31.5177309 ] } },
{ "type": "Feature", "properties": { "Name": "ب لبن" }, "geometry": { "type": "Point", "coordinates": [ 32.31574, 31.2694584 ] } },
{ "type": "Feature", "properties": { "Name": "بلبن" }, "geometry": { "type": "Point", "coordinates": [ 29.7476369, 31.0864477 ] } },
{ "type": "Feature", "properties": { "Name": "ب لبن - B.Laban" }, "geometry": { "type": "Point", "coordinates": [ 29.768619, 31.1019226 ] } },
{ "type": "Feature", "properties": { "Name": "ب لبن" }, "geometry": { "type": "Point", "coordinates": [ 29.7837054, 31.1235592 ] } },
{ "type": "Feature", "properties": { "Name": "ب لبن" }, "geometry": { "type": "Point", "coordinates": [ 29.8829572, 31.2076055 ] } },
{ "type": "Feature", "properties": { "Name": "بلبن" }, "geometry": { "type": "Point", "coordinates": [ 29.9010417, 31.2009968 ] } },
{ "type": "Feature", "properties": { "Name": "بلبن B.Laban شارع خالد بن الوليد على البحر بجوار مطعم عروس دمشق" }, "geometry": { "type": "Point", "coordinates": [ 29.9913806, 31.2695991 ] } },
{ "type": "Feature", "properties": { "Name": "ب لبن سموحة" }, "geometry": { "type": "Point", "coordinates": [ 29.9461949, 31.2141442 ] } },
{ "type": "Feature", "properties": { "Name": "بلبن b.laban" }, "geometry": { "type": "Point", "coordinates": [ 29.9491595, 31.2335471 ] } },
{ "type": "Feature", "properties": { "Name": "بلبن belaban" }, "geometry": { "type": "Point", "coordinates": [ 29.4386955, 30.9123547 ] } },
{ "type": "Feature", "properties": { "Name": "ب لبن B. LABAN" }, "geometry": { "type": "Point", "coordinates": [ 29.1735699, 30.8227196 ] } },
{ "type": "Feature", "properties": { "Name": "بلبن مارينا" }, "geometry": { "type": "Point", "coordinates": [ 28.9831895, 30.8271166 ] } },
{ "type": "Feature", "properties": { "Name": "بلبن" }, "geometry": { "type": "Point", "coordinates": [ 28.6808127, 30.9903965 ] } },
{ "type": "Feature", "properties": { "Name": "ب لبن" }, "geometry": { "type": "Point", "coordinates": [ 27.2246538, 31.3588415 ] } },
{ "type": "Feature", "properties": { "Name": "ب لبن" }, "geometry": { "type": "Point", "coordinates": [ 27.240007, 31.3550497 ] } },
{ "type": "Feature", "properties": { "Name": "ب لبن" }, "geometry": { "type": "Point", "coordinates": [ 30.4659246, 31.0442397 ] } },
{ "type": "Feature", "properties": { "Name": "بــ لبن B.Laban" }, "geometry": { "type": "Point", "coordinates": [ 30.6493334, 31.1208631 ] } },
{ "type": "Feature", "properties": { "Name": "ب لبن" }, "geometry": { "type": "Point", "coordinates": [ 30.8140686, 30.8254176 ] } },
{ "type": "Feature", "properties": { "Name": "ب لبن" }, "geometry": { "type": "Point", "coordinates": [ 31.0012237, 30.7996372 ] } },
{ "type": "Feature", "properties": { "Name": "بلبن" }, "geometry": { "type": "Point", "coordinates": [ 30.9929999, 30.8147029 ] } },
{ "type": "Feature", "properties": { "Name": "بــ لبن - B.Laban" }, "geometry": { "type": "Point", "coordinates": [ 31.1801146, 30.4670319 ] } },
{ "type": "Feature", "properties": { "Name": "بــ لبن" }, "geometry": { "type": "Point", "coordinates": [ 31.8131252, 31.4092386 ] } },
{ "type": "Feature", "properties": { "Name": "بلبن" }, "geometry": { "type": "Point", "coordinates": [ 32.2765345, 30.5912434 ] } },
{ "type": "Feature", "properties": { "Name": "ب لبن" }, "geometry": { "type": "Point", "coordinates": [ 31.1075527, 29.0662224 ] } },
{ "type": "Feature", "properties": { "Name": "بلبن اسيوط" }, "geometry": { "type": "Point", "coordinates": [ 31.1863225, 27.1931921 ] } },
{ "type": "Feature", "properties": { "Name": "قشطه بلبن الأقصر Qeshta_B.Laban" }, "geometry": { "type": "Point", "coordinates": [ 32.6403063, 25.6927865 ] } },
{ "type": "Feature", "properties": { "Name": "ب لبن. العزيزية" }, "geometry": { "type": "Point", "coordinates": [ 46.7777921, 24.5874085 ] } },
{ "type": "Feature", "properties": { "Name": "بلبن" }, "geometry": { "type": "Point", "coordinates": [ 46.7808125, 24.8166875 ] } },
{ "type": "Feature", "properties": { "Name": "ب لبن" }, "geometry": { "type": "Point", "coordinates": [ 46.8089345, 24.7432323 ] } },
{ "type": "Feature", "properties": { "Name": "ب لبن" }, "geometry": { "type": "Point", "coordinates": [ 46.6982097, 24.7029454 ] } },
{ "type": "Feature", "properties": { "Name": "بلبن" }, "geometry": { "type": "Point", "coordinates": [ 46.6033977, 24.7784786 ] } },
{ "type": "Feature", "properties": { "Name": "بـ لبن" }, "geometry": { "type": "Point", "coordinates": [ 46.6002146, 24.8005077 ] } },
{ "type": "Feature", "properties": { "Name": "بلبن" }, "geometry": { "type": "Point", "coordinates": [ 49.6097266, 25.355571 ] } },
{ "type": "Feature", "properties": { "Name": "بلبن" }, "geometry": { "type": "Point", "coordinates": [ 50.113897, 26.4566334 ] } },
{ "type": "Feature", "properties": { "Name": "بلبن" }, "geometry": { "type": "Point", "coordinates": [ 39.5971742, 24.4264954 ] } },
{ "type": "Feature", "properties": { "Name": "ب لبن" }, "geometry": { "type": "Point", "coordinates": [ 39.1585824, 21.5208059 ] } },
{ "type": "Feature", "properties": { "Name": "بلبن" }, "geometry": { "type": "Point", "coordinates": [ 39.1081782, 21.6149455 ] } },
{ "type": "Feature", "properties": { "Name": "بلبن B.Laban | فرع الشرائع مكة" }, "geometry": { "type": "Point", "coordinates": [ 39.9450541, 21.4643651 ] } },
{ "type": "Feature", "properties": { "Name": "بِلبَن فرع النسيم بمكة" }, "geometry": { "type": "Point", "coordinates": [ 39.8741042, 21.3700305 ] } },
{ "type": "Feature", "properties": { "Name": "بلبن" }, "geometry": { "type": "Point", "coordinates": [ 39.7945917, 21.3771115 ] } },
{ "type": "Feature", "properties": { "Name": "بلبن" }, "geometry": { "type": "Point", "coordinates": [ 39.1405588, 21.6118667 ] } },
{ "type": "Feature", "properties": { "Name": "بلبن" }, "geometry": { "type": "Point", "coordinates": [ 39.8215419, 21.4209301 ] } },
{ "type": "Feature", "properties": { "Name": "بلبن b laban" }, "geometry": { "type": "Point", "coordinates": [ 39.8256319, 21.4189866 ] } },
{ "type": "Feature", "properties": { "Name": "بلبن" }, "geometry": { "type": "Point", "coordinates": [ 50.2233355, 26.3047033 ] } },
{ "type": "Feature", "properties": { "Name": "بلبن" }, "geometry": { "type": "Point", "coordinates": [ 43.912909, 26.4057127 ] } },
{ "type": "Feature", "properties": { "Name": "بــ لبن أبو ظبي" }, "geometry": { "type": "Point", "coordinates": [ 54.376186, 24.4746835 ] } },
{ "type": "Feature", "properties": { "Name": "بلبن بني ياس" }, "geometry": { "type": "Point", "coordinates": [ 54.6177414, 24.3041123 ] } },
{ "type": "Feature", "properties": { "Name": "بــ لبن" }, "geometry": { "type": "Point", "coordinates": [ 55.1970309, 25.1087267 ] } },
{ "type": "Feature", "properties": { "Name": "بــ لبن B.Laban أبو هيل" }, "geometry": { "type": "Point", "coordinates": [ 55.351812, 25.2841272 ] } },
{ "type": "Feature", "properties": { "Name": "بــ لبن الشارقة" }, "geometry": { "type": "Point", "coordinates": [ 55.3868537, 25.3373639 ] } },
{ "type": "Feature", "properties": { "Name": "بــ لبن B.Laban عجمان" }, "geometry": { "type": "Point", "coordinates": [ 55.4594375, 25.3894375 ] } },
{ "type": "Feature", "properties": { "Name": "بــ لبن B.Laban العين" }, "geometry": { "type": "Point", "coordinates": [ 55.7615013, 24.224848 ] } },
{ "type": "Feature", "properties": { "Name": "بلبن قطر" }, "geometry": { "type": "Point", "coordinates": [ 51.4953103, 25.2733984 ] } },
{ "type": "Feature", "properties": { "Name": "B.Laban" }, "geometry": { "type": "Point", "coordinates": [ 51.5131773, 25.3174703 ] } },
{ "type": "Feature", "properties": { "Name": "ب لبن -_- B laban" }, "geometry": { "type": "Point", "coordinates": [ 13.2032344, 32.8760097 ] } },
{ "type": "Feature", "properties": { "Name": "B.Laban ب لبن" }, "geometry": { "type": "Point", "coordinates": [ 35.8741774, 32.5384265 ] } },
{ "type": "Feature", "properties": { "Name": "لبن" }, "geometry": { "type": "Point", "coordinates": [ 36.0883176, 32.0852684 ] } },
{ "type": "Feature", "properties": { "Name": "ب لبن" }, "geometry": { "type": "Point", "coordinates": [ 36.0987752, 32.0867887 ] } },
{ "type": "Feature", "properties": { "Name": "بـ لبن الأردن - B.Laban.Jordan" }, "geometry": { "type": "Point", "coordinates": [ 35.9155381, 31.9143475 ] } },
{ "type": "Feature", "properties": { "Name": "ب لبن" }, "geometry": { "type": "Point", "coordinates": [ 35.8671521, 31.9883826 ] } },
{ "type": "Feature", "properties": { "Name": "بي لبن" }, "geometry": { "type": "Point", "coordinates": [ 35.9309766, 31.9522297 ] } },
{ "type": "Feature", "properties": { "Name": "بلبن طبربور" }, "geometry": { "type": "Point", "coordinates": [ 35.9424953, 32.0008464 ] } },
{ "type": "Feature", "properties": { "Name": "ب لبن سلطنة عمان مسقط" }, "geometry": { "type": "Point", "coordinates": [ 58.433749, 23.5967097 ] } },
{ "type": "Feature", "properties": { "Name": "B. LABAN" }, "geometry": { "type": "Point", "coordinates": [ 58.1453109, 23.5854955 ] } }
]
}
